"site","lat","long","bedrock","bulkdens","bulkdens.uc","cec","cec.uncertainty","perc.gravel","perc.gravel.uc","perc.clay","perc.clay.uc","n.mean","n.uc","ph.mean","ph.uc","perc.sand","perc.sand.uc","perc.silt","perc.silt.uc","soc","soc.uc","om","wfc","pwp","whc"
"Bell_2020_05",31.0894,-97.413218,2,1.6,0.3,31.2,1.8,3.1,16.1,32.4,3.3,2,2.9,7.5,0.3,23.7,3,43.9,1.9,19.4,3.2,33.4456,344.104296444444,195.82015072432,270.132193941265
"Bexar_2019_13",29.244832,-98.427454,2,1.6,0.3,21.5,2.2,2.9,17.2,26.1,3.6,1.7,2.4,7.4,0.3,47.7,1.9,26.2,3.7,16.9,2.9,29.1356,272.287199466795,158.50033947328,207.715637180962
"Blanco_2019_16",29.986237,-98.429976,2,1.5,0.4,24.9,2.2,13.9,5.9,33.6,3.3,2.5,3.4,7.2,0.4,29.8,2.6,36.7,2.7,26.4,2.5,45.5136,341.180922391018,203.10898799488,223.494278768341
"Brazos_2020_18",30.524669,-96.209114,2,1.6,0.4,15.1,4,1,6.2,20,13.8,2,6.2,5.9,0.6,42.8,1.9,37.2,2.5,20,3,34.48,250.2987692506,123.47925088,236.036487591361
"Comal_2020_21",29.787704,-98.434563,2,1.5,0.4,20.8,3.5,11.9,5.7,37.5,2.9,2.4,2.9,7,0.4,30.4,4.1,32.1,3.4,29.2,3,50.3408,359.300045480832,225.5702661424,221.493958922658
"Edwards_2019_17",29.953118,-100.356582,2,1.4,0.4,27.9,2.2,16.6,16.2,35,2.4,2.4,2.5,7.2,0.4,24.6,2.8,40.5,2.4,35.7,5.3,61.5468,355.621064421785,211.4772898336,226.005907052307
"Fayette_2019_04",30.093534,-96.780727,2,1.6,0.4,19.8,3.7,1.2,6.1,26.2,5.6,2.7,5.4,5.9,0.6,42.4,1.9,31.4,3,30.1,4.6,51.8924,284.420719395443,160.59673857904,229.99561492762
"Harris_2020_03",29.8683,-95.3049,2,1.5,0.5,18.1,4.3,1.7,7,35,2.8,4.1,5.6,5.8,0.7,24.3,2.8,40.7,2.2,40.9,6.4,70.5116,356.434728989228,211.7398089196,267.402000085475
"Menard_2020_01",30.912522,-99.573082,2,1.6,0.4,23.4,1.9,16.1,5.4,38,2.6,2.4,3.3,7.2,0.3,24.9,3,37.1,2.5,29.9,2.8,51.5476,368.183893316491,228.1852186852,220.822709469428
"Russel_2020_01",30.390675,-96.906408,2,1.5,0.4,14.7,5.4,2.2,8.6,26.7,9.7,2.6,5.8,5.8,0.7,54.8,1.5,18.6,10.6,25.9,3.4,44.6516,264.658994433145,162.60426611656,187.641905672007
"Sansaba_2020_01",31.28807,-98.619493,2,1.6,0.4,24.8,2,7.8,39.8,35.7,2.5,2.2,4.5,7.2,0.4,30,1.9,34.4,2.5,25.6,3.4,44.1344,350.84135002483,215.07210684544,235.336975357427
"Uvalde_2020_02",29.591111,-100.091111,1.88,1.4,0.4,24.6,2.1,14.9,5.2,33.1,2.8,2.8,3.9,7.2,0.4,23.6,3.4,43.3,2,42.6,4.2,73.4424,349.416205963552,201.11192146672,237.269058680791
"Williamson_2019_09",30.706792,-97.859829,2,1.6,0.3,21.6,2.4,7.6,43.5,33,3.2,2.2,2.1,7.4,0.3,18,3.5,49.1,1.7,23.2,2.1,39.9968,355.625748058827,199.4193527872,271.349253354248
"Williamson_2019_10",30.539935,-97.771213,2,1.6,0.3,25.6,2,10.5,19.9,32.5,3,2.1,2.1,7.4,0.3,27,2.7,40.6,2.1,27.4,2.6,47.2376,340.307009100185,196.8715195,241.344554801271
"Austin_2020_03",29.776805,-96.24351,2,1.6,0.4,17.3,7.5,0.9,2.5,22.2,14.5,1.9,4.1,6.1,0.6,36.6,2.8,41.2,3.1,20.2,2.5,34.8248,273.971843146587,136.83763648768,255.491997742077
"Bandera_2020_03",29.850369,-99.304193,2,1.5,0.4,26.7,1.9,10.9,7,35.4,2.7,2.1,2.4,7,0.4,26.4,3.2,38.2,2.7,30.8,6.2,53.0992,354.60883063612,213.54067845184,236.300440360843
"Bell_2021_08",31.055926,-97.549379,2,1.6,0.4,20.3,2.5,12.2,33,36.7,2.9,2.2,3.8,7.3,0.4,25.1,3.2,38.2,2.1,23.7,3.5,40.8588,361.666882503104,220.52163299488,232.979994648255
"Brazos_2020_16",30.926287,-96.225878,2,1.5,0.4,17.3,3.5,1.2,3.6,14.6,16,2.5,5.9,5.8,0.6,52.8,1.5,32.6,2.7,23.2,3.1,39.9968,201.583703241978,91.00016781184,205.402282049355
"Burnet_2020_12",30.824885,-98.059505,2,1.6,0.4,21.2,2.9,12.4,6.9,27,3.4,2.4,3.1,7.4,0.4,26.9,1.8,46.2,1.7,24.2,2.3,41.7208,315.51483374735,165.3330292552,247.331410182032
"Burnet_2020_14",30.840194,-98.343954,2,1.5,0.4,24.1,2.6,12,7.7,26.2,4.1,2.2,3.4,7.1,0.4,37.1,1.8,36.7,2.1,45,8.7,77.58,296.235341651508,162.116448028,221.886297610731
"Comal_2020_19",30.00668,-98.31665,2,1.5,0.4,21,2.9,11.6,16.3,35.9,2.9,2.2,2.5,7.4,0.4,31.8,3,32.4,3.2,26.9,2.8,46.3756,349.576708623664,216.34431525832,221.421579181733
"Fayette_2020_09",29.860296,-96.71418,2,1.6,0.4,22.9,3.2,1.6,8.6,17.7,10.7,2.5,5.4,6.3,0.6,55.6,1.4,26.7,3.5,28.8,3.5,49.6512,213.110811940807,109.69086566272,191.31862701876
"Fayette_2021_12",29.864081,-97.206843,2,1.6,0.4,15.7,4.1,6.1,41.2,17.9,15.6,2.2,5.5,5.9,0.6,59.4,1.3,22.8,5.7,22.4,3.8,38.6176,204.968188164824,109.63229009152,168.298367586765
"Hays_2021_54",29.957819,-98.165764,2,1.5,0.4,21.8,2.6,12.5,8.6,37.5,2.6,2.4,3.5,6.9,0.5,27.3,3.4,35.2,2.7,32.4,5.7,55.8576,363.219230433182,225.5849038336,226.408467256313
"Kerr_2020_03",30.055868,-99.341589,2,1.5,0.4,25.5,2.2,12.9,6.3,33.5,2.9,2.7,4,7.2,0.4,24.6,2.7,42,2.1,34.9,5.6,60.1676,348.995448932226,202.95515629,239.138058395792
"Washington_2020_08",30.284962,-96.406236,2,1.6,0.4,16,4.9,0.7,3.6,23.7,9.9,2.1,5.7,6.1,0.6,50.2,1.4,26.2,4.4,20.8,3.3,35.8592,255.135273172781,144.62515188352,206.304714827644
